[
  {
    "category": "restaurant",
    "name": "참제철",
    "address": "서울 종로구 사직로 133-10 4층",
    "lat": "37.57636973",
    "lng": "126.9734465",
    "url": ""
  },
  {
    "category": "restaurant",
    "name": "와일드덕&칸틴",
    "address": "서울 용산구 신흥로 33 1층",
    "lat": "37.54154207",
    "lng": "126.9870611",
    "url": ""
  },
  {
    "category": "restaurant",
    "name": "포시즌스호텔 찰스H",
    "address": "서울 종로구 새문안로 97 지하1층",
    "lat": "37.57069785",
    "lng": "126.9753982",
    "url": ""
  },
  {
    "category": "restaurant",
    "name": "제스트",
    "address": "서울 강남구 도산대로55길 26",
    "lat": "37.52522789",
    "lng": "127.0407905",
    "url": ""
  },
  {
    "category": "restaurant",
    "name": "앨리스",
    "address": "서울 강남구 도산대로55길 47 지하1층",
    "lat": "37.52667755",
    "lng": "127.0409437",
    "url": ""
  },
  {
    "category": "restaurant",
    "name": "소코",
    "address": "서울 용산구 한남대로20길 47",
    "lat": "37.53489275",
    "lng": "127.0094949",
    "url": ""
  },
  {
    "category": "restaurant",
    "name": "참",
    "address": "서울 종로구 자하문로7길 34",
    "lat": "37.57917082",
    "lng": "126.9703847",
    "url": ""
  },
  {
    "category": "restaurant",
    "name": "문리버클래식바",
    "address": "서울 강남구 도산대로45길 10-4 지하1층",
    "lat": "37.5231606",
    "lng": "127.0361656",
    "url": ""
  },
  {
    "category": "restaurant",
    "name": "르챔버",
    "address": "서울 강남구 도산대로55길 42 지하1층",
    "lat": "37.52625555",
    "lng": "127.0411279",
    "url": ""
  },
  {
    "category": "restaurant",
    "name": "레꼬빵",
    "address": "서울 강남구 도산대로62길 17 지하1층",
    "lat": "37.52225935",
    "lng": "127.043104",
    "url": ""
  },
  {
    "category": "restaurant",
    "name": "까사델비노",
    "address": "서울 강남구 선릉로162길 43",
    "lat": "37.52635962",
    "lng": "127.0440977",
    "url": ""
  },
  {
    "category": "restaurant",
    "name": "합 원서점",
    "address": "서울 종로구 율곡로 83 신관 2층",
    "lat": "37.5777622",
    "lng": "126.9883576",
    "url": ""
  },
  {
    "category": "restaurant",
    "name": "프릳츠 도화점",
    "address": "서울 마포구 새창로2길 17",
    "lat": "37.54108498",
    "lng": "126.9490492",
    "url": ""
  },
  {
    "category": "restaurant",
    "name": "젠제로",
    "address": "서울 강남구 선릉로126길 14 1층",
    "lat": "37.51527004",
    "lng": "127.04323",
    "url": ""
  },
  {
    "category": "restaurant",
    "name": "제이엘디저트바",
    "address": "서울 용산구 대사관로31길 7-2 3층",
    "lat": "37.53390306",
    "lng": "127.0057237",
    "url": ""
  },
  {
    "category": "restaurant",
    "name": "재인",
    "address": "서울 용산구 이태원로54길 48 2층",
    "lat": "37.53634022",
    "lng": "127.001269",
    "url": ""
  },
  {
    "category": "restaurant",
    "name": "소나",
    "address": "서울 강남구 강남대로162길 40 201호",
    "lat": "37.52070209",
    "lng": "127.0215912",
    "url": ""
  },
  {
    "category": "restaurant",
    "name": "삐아프",
    "address": "서울 강남구 논현로175길 109 1층",
    "lat": "37.52231731",
    "lng": "127.0206122",
    "url": ""
  },
  {
    "category": "restaurant",
    "name": "메종엠오 방배본점",
    "address": "서울 서초구 방배로26길 22 1층",
    "lat": "37.48931127",
    "lng": "126.9940941",
    "url": ""
  },
  {
    "category": "restaurant",
    "name": "김씨부인",
    "address": "서울 서초구 서래로1길 8 2층",
    "lat": "37.4962578",
    "lng": "126.997751",
    "url": ""
  },
  {
    "category": "restaurant",
    "name": "1994SEOUL",
    "address": "서울 마포구 성미산로23안길 20-12",
    "lat": "37.56582136",
    "lng": "126.9214848",
    "url": ""
  },
  {
    "category": "restaurant",
    "name": "몽크스부처 이태원",
    "address": "서울 용산구 이태원로 228-1",
    "lat": "37.53544553",
    "lng": "126.999225",
    "url": ""
  },
  {
    "category": "restaurant",
    "name": "포리스트키친",
    "address": "서울 송파구 올림픽로 300 6층",
    "lat": "37.51371299",
    "lng": "127.1043018",
    "url": ""
  },
  {
    "category": "restaurant",
    "name": "산촌 본점",
    "address": "서울 종로구 인사동길 30-13",
    "lat": "37.57379742",
    "lng": "126.9862606",
    "url": ""
  },
  {
    "category": "restaurant",
    "name": "베지위켄드",
    "address": "서울 용산구 한남대로 60",
    "lat": "37.53448433",
    "lng": "127.0081924",
    "url": ""
  },
  {
    "category": "restaurant",
    "name": "베지스튜디오",
    "address": "서울 마포구 백범로 152",
    "lat": "37.54474774",
    "lng": "126.9482582",
    "url": ""
  },
  {
    "category": "restaurant",
    "name": "베이스이즈나이스",
    "address": "서울 마포구 도화2길 20",
    "lat": "37.53962494",
    "lng": "126.9491058",
    "url": ""
  },
  {
    "category": "restaurant",
    "name": "발우공양",
    "address": "서울 종로구 우정국로 56 5층",
    "lat": "37.5739364",
    "lng": "126.983186",
    "url": ""
  },
  {
    "category": "restaurant",
    "name": "마지",
    "address": "서울 종로구 자하문로5길 19",
    "lat": "37.57761005",
    "lng": "126.9708053",
    "url": ""
  },
  {
    "category": "restaurant",
    "name": "로컬릿",
    "address": "서울 성동구 한림말길 33",
    "lat": "37.54094143",
    "lng": "127.0147469",
    "url": ""
  },
  {
    "category": "restaurant",
    "name": "레귬",
    "address": "서울 강남구 강남대로 652",
    "lat": "37.5195659",
    "lng": "127.019091",
    "url": ""
  },
  {
    "category": "restaurant",
    "name": "이목스모크다이닝",
    "address": "서울 강남구 압구정로2길 6",
    "lat": "37.52108634",
    "lng": "127.0191382",
    "url": ""
  },
  {
    "category": "restaurant",
    "name": "영동장어",
    "address": "서울 강남구 언주로148길 8",
    "lat": "37.52031675",
    "lng": "127.035337",
    "url": ""
  },
  {
    "category": "restaurant",
    "name": "세스타",
    "address": "서울 용산구 한남대로20길 21-18",
    "lat": "37.53522516",
    "lng": "127.0091332",
    "url": ""
  },
  {
    "category": "restaurant",
    "name": "삼원가든",
    "address": "서울 강남구 언주로 835",
    "lat": "37.52493042",
    "lng": "127.0325303",
    "url": ""
  },
  {
    "category": "restaurant",
    "name": "산청숯불가든 을지로",
    "address": "서울 중구 을지로 114-6",
    "lat": "37.56583385",
    "lng": "126.990609",
    "url": ""
  },
  {
    "category": "restaurant",
    "name": "본앤브레드 신관레스토랑",
    "address": "서울 성동구 마장로42길 1",
    "lat": "37.56679009",
    "lng": "127.0445014",
    "url": ""
  },
  {
    "category": "restaurant",
    "name": "벽제갈비 더청담",
    "address": "서울 강남구 도산대로81길 25",
    "lat": "37.52601492",
    "lng": "127.0470849",
    "url": ""
  },
  {
    "category": "restaurant",
    "name": "몽탄",
    "address": "서울 용산구 백범로99길 50",
    "lat": "37.53599585",
    "lng": "126.9722454",
    "url": ""
  },
  {
    "category": "restaurant",
    "name": "뜨락",
    "address": "서울 강남구 영동대로142길 13-3",
    "lat": "37.52441484",
    "lng": "127.0555512",
    "url": ""
  },
  {
    "category": "restaurant",
    "name": "금돼지식당",
    "address": "서울 중구 다산로 149",
    "lat": "37.55709308",
    "lng": "127.0116776",
    "url": ""
  },
  {
    "category": "restaurant",
    "name": "김인복의광평 삼성본점",
    "address": "서울 강남구 영동대로106길 45",
    "lat": "37.51435949",
    "lng": "127.0648788",
    "url": ""
  },
  {
    "category": "restaurant",
    "name": "홍보각",
    "address": "서울 강남구 봉은사로 130",
    "lat": "37.50528056",
    "lng": "127.0289194",
    "url": ""
  },
  {
    "category": "restaurant",
    "name": "호라파",
    "address": "서울 종로구 자하문로 37-1",
    "lat": "37.57939292",
    "lng": "126.9711008",
    "url": ""
  },
  {
    "category": "restaurant",
    "name": "스시하네",
    "address": "서울 강남구 언주로172길 14",
    "lat": "37.52762977",
    "lng": "127.0349187",
    "url": ""
  },
  {
    "category": "restaurant",
    "name": "플레이버타운",
    "address": "서울 성동구 서울숲4길 18-7",
    "lat": "37.54698449",
    "lng": "127.0429256",
    "url": ""
  },
  {
    "category": "restaurant",
    "name": "코지마",
    "address": "서울 강남구 압구정로60길 21",
    "lat": "37.52587458",
    "lng": "127.0419621",
    "url": ""
  },
  {
    "category": "restaurant",
    "name": "진진",
    "address": "서울 마포구 월드컵북로1길 60",
    "lat": "37.55380675",
    "lng": "126.9184224",
    "url": ""
  },
  {
    "category": "restaurant",
    "name": "포시즌스호텔 유유안",
    "address": "서울 종로구 새문안로 97 11층",
    "lat": "37.57069785",
    "lng": "126.9753982",
    "url": ""
  },
  {
    "category": "restaurant",
    "name": "영동포차나",
    "address": "서울 강남구 언주로148길 14",
    "lat": "37.52063014",
    "lng": "127.0361626",
    "url": ""
  },
  {
    "category": "restaurant",
    "name": "소수헌",
    "address": "서울 중구 만리재로21길 8",
    "lat": "37.55295538",
    "lng": "126.9634072",
    "url": ""
  },
  {
    "category": "restaurant",
    "name": "산로",
    "address": "서울 강남구 도산대로 518",
    "lat": "37.52416847",
    "lng": "127.0497772",
    "url": ""
  },
  {
    "category": "restaurant",
    "name": "보보식당",
    "address": "서울 강남구 언주로174길 30",
    "lat": "37.5278619",
    "lng": "127.0363122",
    "url": ""
  },
  {
    "category": "restaurant",
    "name": "미토우",
    "address": "서울 강남구 도산대로70길 24",
    "lat": "37.52210995",
    "lng": "127.0450554",
    "url": ""
  },
  {
    "category": "restaurant",
    "name": "고료리켄",
    "address": "서울 강남구 언주로152길 15-3",
    "lat": "37.52300811",
    "lng": "127.0348058",
    "url": ""
  },
  {
    "category": "restaurant",
    "name": "계향각",
    "address": "서울 종로구 동숭길 86",
    "lat": "37.58209584",
    "lng": "127.0043262",
    "url": ""
  },
  {
    "category": "restaurant",
    "name": "쵸이닷",
    "address": "서울 강남구 도산대로 457",
    "lat": "37.52444855",
    "lng": "127.0465521",
    "url": ""
  },
  {
    "category": "restaurant",
    "name": "페리지",
    "address": "서울 강남구 봉은사로68길 6-5",
    "lat": "37.5112492",
    "lng": "127.0494792",
    "url": ""
  },
  {
    "category": "restaurant",
    "name": "테이블포포",
    "address": "서울 서초구 사평대로14길 11",
    "lat": "37.49773525",
    "lng": "126.9944415",
    "url": ""
  },
  {
    "category": "restaurant",
    "name": "제로컴플렉스",
    "address": "서울 용산구 서빙고로59길 11-8",
    "lat": "37.52084332",
    "lng": "126.9928544",
    "url": ""
  },
  {
    "category": "restaurant",
    "name": "에빗",
    "address": "서울 강남구 도산대로45길 10-5",
    "lat": "37.5234327",
    "lng": "127.036202",
    "url": ""
  },
  {
    "category": "restaurant",
    "name": "알라프리마",
    "address": "서울 강남구 학동로17길 13",
    "lat": "37.51355119",
    "lng": "127.0260248",
    "url": ""
  },
  {
    "category": "restaurant",
    "name": "빠넬로",
    "address": "서울 마포구 어울마당로5길 29",
    "lat": "37.54939033",
    "lng": "126.9189552",
    "url": ""
  },
  {
    "category": "restaurant",
    "name": "빈호",
    "address": "서울 강남구 학동로43길 38",
    "lat": "37.51845805",
    "lng": "127.0380225",
    "url": ""
  },
  {
    "category": "restaurant",
    "name": "비스트로드욘트빌",
    "address": "서울 강남구 선릉로158길 13-7",
    "lat": "37.52607423",
    "lng": "127.0412332",
    "url": ""
  },
  {
    "category": "restaurant",
    "name": "보르고한남",
    "address": "서울 용산구 이태원로54길 31",
    "lat": "37.5370311",
    "lng": "127.0019509",
    "url": ""
  },
  {
    "category": "restaurant",
    "name": "바위파스타바",
    "address": "서울 성동구 뚝섬로15길 27",
    "lat": "37.53913278",
    "lng": "127.0615626",
    "url": ""
  },
  {
    "category": "restaurant",
    "name": "메종조",
    "address": "서울 서초구 반포대로7길 35",
    "lat": "37.48198173",
    "lng": "127.0101251",
    "url": ""
  },
  {
    "category": "restaurant",
    "name": "레스토랑 오와이",
    "address": "서울 강남구 선릉로148길 48-12",
    "lat": "37.52223037",
    "lng": "127.0432593",
    "url": ""
  },
  {
    "category": "restaurant",
    "name": "레스토랑 산 SAN",
    "address": "서울 강남구 언주로168길 6",
    "lat": "37.52635623",
    "lng": "127.0339205",
    "url": ""
  },
  {
    "category": "restaurant",
    "name": "강민철레스토랑",
    "address": "서울 강남구 도산대로68길 18",
    "lat": "37.52245344",
    "lng": "127.0445178",
    "url": ""
  },
  {
    "category": "restaurant",
    "name": "레스토랑 알렌",
    "address": "서울 강남구 테헤란로 231",
    "lat": "37.50288135",
    "lng": "127.0413565",
    "url": ""
  },
  {
    "category": "restaurant",
    "name": "레스쁘아",
    "address": "서울 강남구 도산대로59길 16",
    "lat": "37.52477827",
    "lng": "127.042392",
    "url": ""
  },
  {
    "category": "restaurant",
    "name": "라미띠에",
    "address": "서울 강남구 도산대로67길 30",
    "lat": "37.52596453",
    "lng": "127.0445733",
    "url": ""
  },
  {
    "category": "restaurant",
    "name": "라망시크레",
    "address": "서울 중구 퇴계로 67",
    "lat": "37.55973234",
    "lng": "126.9795234",
    "url": ""
  },
  {
    "category": "restaurant",
    "name": "더 그린테이블",
    "address": "서울 종로구 율곡로 83 5층",
    "lat": "37.5777622",
    "lng": "126.9883576",
    "url": ""
  },
  {
    "category": "restaurant",
    "name": "다로베",
    "address": "서울 성동구 왕십리로11길 7",
    "lat": "37.54851972",
    "lng": "127.0433894",
    "url": ""
  },
  {
    "category": "restaurant",
    "name": "기가스",
    "address": "서울 중구 퇴계로6가길 30",
    "lat": "37.55697639",
    "lng": "126.9781213",
    "url": ""
  },
  {
    "category": "restaurant",
    "name": "구찌 오스테리아 서울",
    "address": "서울 용산구 이태원로 223",
    "lat": "37.53546562",
    "lng": "126.9985343",
    "url": ""
  },
  {
    "category": "restaurant",
    "name": "한국의집",
    "address": "서울 중구 퇴계로36길 10",
    "lat": "37.5602235",
    "lng": "126.9944983",
    "url": ""
  },
  {
    "category": "restaurant",
    "name": "하동관 명동본점",
    "address": "서울 중구 명동9길 12",
    "lat": "37.56443367",
    "lng": "126.985031",
    "url": ""
  },
  {
    "category": "restaurant",
    "name": "품서울",
    "address": "서울 강남구 삼성로126길 6",
    "lat": "37.51754024",
    "lng": "127.0516702",
    "url": ""
  },
  {
    "category": "restaurant",
    "name": "정식당",
    "address": "서울 강남구 선릉로158길 11",
    "lat": "37.52565829",
    "lng": "127.0410811",
    "url": ""
  },
  {
    "category": "restaurant",
    "name": "이타닉 가든",
    "address": "서울 강남구 테헤란로 231",
    "lat": "37.50288135",
    "lng": "127.0413565",
    "url": ""
  },
  {
    "category": "restaurant",
    "name": "을밀대 본점",
    "address": "서울 마포구 숭문길 24",
    "lat": "37.54749267",
    "lng": "126.9455317",
    "url": ""
  },
  {
    "category": "restaurant",
    "name": "윤서울",
    "address": "서울 강남구 선릉로 805",
    "lat": "37.5241263",
    "lng": "127.0389822",
    "url": ""
  },
  {
    "category": "restaurant",
    "name": "우래옥 본점",
    "address": "서울 중구 창경궁로 62-29",
    "lat": "37.56821852",
    "lng": "126.9987145",
    "url": ""
  },
  {
    "category": "restaurant",
    "name": "용수산 비원점",
    "address": "서울 종로구 창덕궁1길 2",
    "lat": "37.57944506",
    "lng": "126.989199",
    "url": ""
  },
  {
    "category": "restaurant",
    "name": "온지음",
    "address": "서울 종로구 효자로 49",
    "lat": "37.58049411",
    "lng": "126.9733915",
    "url": ""
  },
  {
    "category": "restaurant",
    "name": "스와니예",
    "address": "서울 강남구 강남대로 652",
    "lat": "37.5195659",
    "lng": "127.019091",
    "url": ""
  },
  {
    "category": "restaurant",
    "name": "솔밤",
    "address": "서울 강남구 학동로 231",
    "lat": "37.51549276",
    "lng": "127.0341901",
    "url": ""
  },
  {
    "category": "restaurant",
    "name": "세븐스도어",
    "address": "서울 강남구 학동로97길 41",
    "lat": "37.52240897",
    "lng": "127.0543136",
    "url": ""
  },
  {
    "category": "restaurant",
    "name": "시그니엘서울 비채나",
    "address": "서울 송파구 올림픽로 300",
    "lat": "37.51371299",
    "lng": "127.1043018",
    "url": ""
  },
  {
    "category": "restaurant",
    "name": "봉우리 역삼본점",
    "address": "서울 강남구 논현로94길 25-3",
    "lat": "37.50304101",
    "lng": "127.0381464",
    "url": ""
  },
  {
    "category": "restaurant",
    "name": "밍글스",
    "address": "서울 강남구 도산대로67길 19",
    "lat": "37.5253703",
    "lng": "127.04416",
    "url": ""
  },
  {
    "category": "restaurant",
    "name": "레스토랑주은",
    "address": "서울 종로구 경희궁길 36",
    "lat": "37.57291991",
    "lng": "126.9700632",
    "url": ""
  },
  {
    "category": "restaurant",
    "name": "서울신라호텔 라연",
    "address": "서울 중구 동호로 249",
    "lat": "37.55750551",
    "lng": "127.0079529",
    "url": ""
  },
  {
    "category": "restaurant",
    "name": "남포면옥",
    "address": "서울 중구 을지로3길 24",
    "lat": "37.56714637",
    "lng": "126.981676",
    "url": ""
  },
  {
    "category": "restaurant",
    "name": "꽃밥에피다",
    "address": "서울 종로구 인사동16길 3-6",
    "lat": "37.57527576",
    "lng": "126.9840151",
    "url": ""
  },
  {
    "category": "restaurant",
    "name": "권숙수",
    "address": "서울 강남구 압구정로80길 37",
    "lat": "37.52437563",
    "lng": "127.0435776",
    "url": ""
  },
  {
    "category": "culture",
    "name": "1유로프로젝트 북가좌",
    "address": "서울 서대문구 응암로 118 (북가좌동)",
    "lat": "37.58293188",
    "lng": "126.9138623",
    "url": ""
  },
  {
    "category": "culture",
    "name": "식물관PH",
    "address": "서울 강남구 광평로34길 24 1층 (수서동)",
    "lat": "37.4826381",
    "lng": "127.0943314",
    "url": ""
  },
  {
    "category": "culture",
    "name": "파네시마복합문화공간",
    "address": "경기 용인시 기흥구 탑실로35번길 59 (공세동)",
    "lat": "37.24411589",
    "lng": "127.111823",
    "url": ""
  },
  {
    "category": "culture",
    "name": "차차티클럽 창신한옥",
    "address": "서울 종로구 종로46가길 13 (창신동)",
    "lat": "37.57108387",
    "lng": "127.0113659",
    "url": ""
  },
  {
    "category": "culture",
    "name": "레퍼토리 성수",
    "address": "서울 성동구 연무장길 49 나동 1층 3호 (성수동2가)",
    "lat": "37.54280159",
    "lng": "127.0549152",
    "url": ""
  },
  {
    "category": "culture",
    "name": "피킹플레저",
    "address": "서울 성동구 왕십리로14길 19-7 1층 (성수동1가)",
    "lat": "37.54886985",
    "lng": "127.0459916",
    "url": ""
  },
  {
    "category": "culture",
    "name": "포인트투파이브세컨드 성수 하우스",
    "address": "서울 성동구 왕십리로14길 20 (성수동1가)",
    "lat": "37.54856125",
    "lng": "127.045777",
    "url": ""
  },
  {
    "category": "culture",
    "name": "아르코예술극장",
    "address": "서울 종로구 대학로8길 7 (동숭동)",
    "lat": "37.58118552",
    "lng": "127.0029999",
    "url": ""
  },
  {
    "category": "culture",
    "name": "산노루 삼성점",
    "address": "서울 강남구 삼성로122길 35 1층 (삼성동)",
    "lat": "37.51878271",
    "lng": "127.0550903",
    "url": ""
  },
  {
    "category": "culture",
    "name": "로코하우스",
    "address": "서울 강남구 테헤란로108길 8 1층 (대치동)",
    "lat": "37.50881211",
    "lng": "127.0656735",
    "url": ""
  },
  {
    "category": "culture",
    "name": "골든구스 서울 유니크",
    "address": "서울 강남구 도산대로45길 8 1층 (신사동)",
    "lat": "37.52288302",
    "lng": "127.0358323",
    "url": ""
  },
  {
    "category": "culture",
    "name": "웨이스트스토어",
    "address": "서울 강남구 도산대로45길 16-6 2층 (신사동)",
    "lat": "37.52338956",
    "lng": "127.0358371",
    "url": ""
  },
  {
    "category": "culture",
    "name": "라운지 클라리멘토",
    "address": "서울 마포구 잔다리로7안길 18 두비스빌딩 1층",
    "lat": "37.5523849",
    "lng": "126.9167617",
    "url": ""
  },
  {
    "category": "culture",
    "name": "꿈의숲아트센터 콘서트홀",
    "address": "서울 강북구 월계로 173 (번동)",
    "lat": "37.62025446",
    "lng": "127.0443247",
    "url": ""
  },
  {
    "category": "culture",
    "name": "상상톡톡미술관",
    "address": "서울 강북구 월계로 173 (번동)",
    "lat": "37.62025446",
    "lng": "127.0443247",
    "url": ""
  },
  {
    "category": "culture",
    "name": "그라운드서울",
    "address": "서울 종로구 인사동9길 26 (견지동)",
    "lat": "37.57342884",
    "lng": "126.9836293",
    "url": ""
  },
  {
    "category": "culture",
    "name": "피크닉",
    "address": "서울 중구 퇴계로6가길 30 (남창동)",
    "lat": "37.55697639",
    "lng": "126.9781213",
    "url": ""
  },
  {
    "category": "culture",
    "name": "덕수궁",
    "address": "서울 중구 세종대로 99 (정동)",
    "lat": "37.56608683",
    "lng": "126.9737258",
    "url": ""
  },
  {
    "category": "culture",
    "name": "종묘",
    "address": "서울 종로구 종로 157 (훈정동)",
    "lat": "37.5731338",
    "lng": "126.9948635",
    "url": ""
  },
  {
    "category": "culture",
    "name": "창덕궁",
    "address": "서울 종로구 율곡로 99 (와룡동)",
    "lat": "37.57886973",
    "lng": "126.9897103",
    "url": ""
  },
  {
    "category": "culture",
    "name": "알맹상점",
    "address": "서울 마포구 월드컵로25길 47 한흥빌딩 3층 (망원동)",
    "lat": "37.55783058",
    "lng": "126.9051353",
    "url": ""
  },
  {
    "category": "culture",
    "name": "온유어마크 경복궁",
    "address": "서울 종로구 자하문로6길 14 (통의동)",
    "lat": "37.57802039",
    "lng": "126.972828",
    "url": ""
  },
  {
    "category": "culture",
    "name": "보틀라운지",
    "address": "서울 서대문구 홍연길 26 1층 (연희동)",
    "lat": "37.57518282",
    "lng": "126.9284745",
    "url": ""
  },
  {
    "category": "culture",
    "name": "알리멘따리 꼰떼",
    "address": "서울 종로구 창의문로 133 101호 (부암동)",
    "lat": "37.5923746",
    "lng": "126.9657089",
    "url": ""
  },
  {
    "category": "culture",
    "name": "보마켓 서울숲점",
    "address": "서울 성동구 왕십리로 83-21",
    "lat": "37.54415475",
    "lng": "127.0433578",
    "url": ""
  },
  {
    "category": "culture",
    "name": "보마켓 1유로코끼리점",
    "address": "서울 성동구 송정18길 1-1 코끼리빌라 1층 (송정동)",
    "lat": "37.55312365",
    "lng": "127.067999",
    "url": ""
  },
  {
    "category": "culture",
    "name": "굿너컴퍼니 북촌점",
    "address": "서울 종로구 북촌로 56 1층 (가회동)",
    "lat": "37.58174884",
    "lng": "126.9852355",
    "url": ""
  },
  {
    "category": "culture",
    "name": "바이인시즌",
    "address": "서울 서대문구 연희맛로 23 사리가쇼핑센터 1층 2호 (연희동)",
    "lat": "37.56715459",
    "lng": "126.9296612",
    "url": ""
  },
  {
    "category": "culture",
    "name": "맥심플랜트",
    "address": "서울 용산구 이태원로 250 지하1-2층, 1-3층 (한남동)",
    "lat": "37.53698993",
    "lng": "127.0009969",
    "url": ""
  },
  {
    "category": "culture",
    "name": "현대카드 디자인 라이브러리",
    "address": "서울 종로구 북촌로 31-18 1-3층 (가회동)",
    "lat": "37.57974622",
    "lng": "126.9839891",
    "url": ""
  },
  {
    "category": "culture",
    "name": "현대카드 뮤직 라이브러리",
    "address": "서울 용산구 이태원로 246 (한남동)",
    "lat": "37.53663557",
    "lng": "127.0007021",
    "url": ""
  },
  {
    "category": "culture",
    "name": "서울식물원 호수공원",
    "address": "서울 강서구 마곡동로 161 (마곡동)",
    "lat": "37.57224441",
    "lng": "126.8328428",
    "url": ""
  },
  {
    "category": "culture",
    "name": "경의선숲길",
    "address": "서울 마포구 연남동 375",
    "lat": "37.56198039",
    "lng": "126.9228087",
    "url": ""
  },
  {
    "category": "culture",
    "name": "도림천",
    "address": "서울 관악구 신림동 808-1",
    "lat": "37.47191671",
    "lng": "126.9336135",
    "url": ""
  },
  {
    "category": "culture",
    "name": "용산가족공원",
    "address": "서울 용산구 서빙고로 137 (용산동6가)",
    "lat": "37.52470224",
    "lng": "126.9777402",
    "url": ""
  },
  {
    "category": "culture",
    "name": "반포한강공원",
    "address": "서울 서초구 반포동 115-5",
    "lat": "37.50964558",
    "lng": "126.9951324",
    "url": ""
  },
  {
    "category": "culture",
    "name": "선유도공원",
    "address": "서울 영등포구 선유로 343 (당산동)",
    "lat": "37.54238323",
    "lng": "126.9018193",
    "url": ""
  },
  {
    "category": "culture",
    "name": "서울시립 난지미술창작스튜디오",
    "address": "서울 마포구 하늘공원로 108-1 (상암동)",
    "lat": "37.56931804",
    "lng": "126.8785119",
    "url": ""
  },
  {
    "category": "culture",
    "name": "하늘공원 메타세쿼이아길",
    "address": "서울 마포구 상암동 482-49",
    "lat": "37.56610017",
    "lng": "126.8831971",
    "url": ""
  },
  {
    "category": "culture",
    "name": "올림픽공원",
    "address": "서울 송파구 올림픽로 424 (방이동)",
    "lat": "37.5203397",
    "lng": "127.1155179",
    "url": ""
  },
  {
    "category": "culture",
    "name": "양화한강공원",
    "address": "서울 영등포구 노들로 221 (당산동)",
    "lat": "37.5382248",
    "lng": "126.902408",
    "url": ""
  },
  {
    "category": "culture",
    "name": "국립현대미술관 덕수궁",
    "address": "서울 중구 세종대로 99 (정동)",
    "lat": "37.56608683",
    "lng": "126.9737258",
    "url": ""
  },
  {
    "category": "culture",
    "name": "국립현대미술관 과천",
    "address": "경기 과천시 광명로 313 (막계동)",
    "lat": "37.43100343",
    "lng": "127.0199299",
    "url": ""
  },
  {
    "category": "culture",
    "name": "국립현대미술관 서울",
    "address": "서울 종로구 삼청로 30 (소격동)",
    "lat": "37.57874362",
    "lng": "126.9800327",
    "url": ""
  },
  {
    "category": "culture",
    "name": "화이트큐브 서울",
    "address": "서울 강남구 도산대로 317 1층 (신사동)",
    "lat": "37.52269761",
    "lng": "127.0363446",
    "url": ""
  },
  {
    "category": "culture",
    "name": "서울시립 남서울미술관",
    "address": "서울 관악구 남부순환로 2076 (남현동)",
    "lat": "37.47605354",
    "lng": "126.9794659",
    "url": ""
  },
  {
    "category": "culture",
    "name": "예술의전당 한가람디자인미술관",
    "address": "서울 서초구 남부순환로 2406 본관 1층 (서초동)",
    "lat": "37.4802402",
    "lng": "127.0142152",
    "url": ""
  },
  {
    "category": "culture",
    "name": "동대문디자인플라자",
    "address": "서울 중구 을지로 281 (을지로7가)",
    "lat": "37.56804459",
    "lng": "127.0108904",
    "url": ""
  },
  {
    "category": "culture",
    "name": "서울특별시교육청 정독도서관",
    "address": "서울 종로구 북촌로5길 48 (화동)",
    "lat": "37.58126545",
    "lng": "126.9838701",
    "url": ""
  },
  {
    "category": "culture",
    "name": "마곡광장",
    "address": "서울 강서구 마곡중앙5로 지하 9 (마곡동)",
    "lat": "37.56601145",
    "lng": "126.8269275",
    "url": ""
  },
  {
    "category": "culture",
    "name": "서울식물원",
    "address": "서울 강서구 마곡동로 161 (마곡동)",
    "lat": "37.57224441",
    "lng": "126.8328428",
    "url": ""
  },
  {
    "category": "culture",
    "name": "콜트클럽",
    "address": "서울 강서구 마곡중앙8로 86 (마곡동)",
    "lat": "37.56062368",
    "lng": "126.8369241",
    "url": ""
  },
  {
    "category": "culture",
    "name": "원그로브",
    "address": "서울 강서구 공항대로 165 (마곡동)",
    "lat": "37.5608751",
    "lng": "126.824696",
    "url": ""
  },
  {
    "category": "culture",
    "name": "마곡문화관",
    "address": "서울 강서구 양천로 282 (마곡동)",
    "lat": "37.57151115",
    "lng": "126.8350021",
    "url": ""
  },
  {
    "category": "culture",
    "name": "스페이스K 서울",
    "address": "서울 강서구 마곡중앙8로 32 (마곡동)",
    "lat": "37.56109293",
    "lng": "126.8309747",
    "url": ""
  },
  {
    "category": "culture",
    "name": "LG아트센터 서울",
    "address": "서울 강서구 마곡중앙로 136 (마곡동)",
    "lat": "37.56536299",
    "lng": "126.8293888",
    "url": ""
  },
  {
    "category": "culture",
    "name": "아마도예술공간",
    "address": "서울 용산구 이태원로54길 8 (한남동)",
    "lat": "37.5378529",
    "lng": "127.0018308",
    "url": ""
  },
  {
    "category": "culture",
    "name": "더줌아트센터",
    "address": "서울 용산구 독서당로 111 (한남동)",
    "lat": "37.53612286",
    "lng": "127.0073076",
    "url": ""
  },
  {
    "category": "culture",
    "name": "아트247",
    "address": "서울 용산구 회나무로21길 54 (이태원동)",
    "lat": "37.54051743",
    "lng": "126.9932627",
    "url": ""
  },
  {
    "category": "culture",
    "name": "블루스퀘어 신한카드홀",
    "address": "서울 용산구 이태원로 294 (한남동)",
    "lat": "37.54086944",
    "lng": "127.0024853",
    "url": ""
  },
  {
    "category": "culture",
    "name": "리움미술관",
    "address": "서울 용산구 이태원로55길 60-16 (한남동)",
    "lat": "37.53846127",
    "lng": "126.9992941",
    "url": ""
  },
  {
    "category": "culture",
    "name": "언더스테이지",
    "address": "서울 용산구 이태원로 246 (한남동)",
    "lat": "37.53663557",
    "lng": "127.0007021",
    "url": ""
  },
  {
    "category": "culture",
    "name": "우엉미 이태원플래그십",
    "address": "서울 용산구 이태원로27길 34-1 (이태원동)",
    "lat": "37.53568569",
    "lng": "126.9942471",
    "url": ""
  },
  {
    "category": "culture",
    "name": "에얼스 한남플래그십",
    "address": "서울 용산구 이태원로45길 14 1층 (한남동)",
    "lat": "37.53641591",
    "lng": "126.9989743",
    "url": ""
  },
  {
    "category": "culture",
    "name": "PBG 한남",
    "address": "서울 용산구 독서당로 87 1층 (한남동)",
    "lat": "37.53471646",
    "lng": "127.0101041",
    "url": ""
  },
  {
    "category": "culture",
    "name": "국립중앙박물관",
    "address": "서울 용산구 서빙고로 137 (용산동6가)",
    "lat": "37.52470224",
    "lng": "126.9777402",
    "url": ""
  },
  {
    "category": "culture",
    "name": "화이트스톤갤러리",
    "address": "서울 용산구 소월로 70 (후암동)",
    "lat": "37.55419035",
    "lng": "126.9782178",
    "url": ""
  },
  {
    "category": "culture",
    "name": "라니앤컴퍼니",
    "address": "서울 용산구 유엔빌리지길 224 1층 (한남동)",
    "lat": "37.53648",
    "lng": "127.0127985",
    "url": ""
  },
  {
    "category": "culture",
    "name": "오온",
    "address": "서울 마포구 성미산로11길 25 지하1층 (성산동)",
    "lat": "37.56173692",
    "lng": "126.9161692",
    "url": ""
  },
  {
    "category": "culture",
    "name": "그라운드시소 서촌",
    "address": "서울 종로구 자하문로6길 18-8 (통의동)",
    "lat": "37.57784039",
    "lng": "126.9729161",
    "url": ""
  },
  {
    "category": "culture",
    "name": "그라운드시소 센트럴",
    "address": "서울 중구 세종대로 14 3층 (남대문로5가)",
    "lat": "37.55783853",
    "lng": "126.9744151",
    "url": ""
  },
  {
    "category": "culture",
    "name": "그라운드시소 이스트",
    "address": "서울 광진구 아차산로 402 2층 (자양동)",
    "lat": "37.53661047",
    "lng": "127.0878525",
    "url": ""
  },
  {
    "category": "culture",
    "name": "디뮤지엄",
    "address": "서울 성동구 왕십리로 83-21 1-4층 (성수동1가)",
    "lat": "37.54415475",
    "lng": "127.0433578",
    "url": ""
  },
  {
    "category": "culture",
    "name": "서울시립 북서울미술관",
    "address": "서울 노원구 동일로 1238 (중계동)",
    "lat": "37.64066045",
    "lng": "127.0668656",
    "url": ""
  },
  {
    "category": "culture",
    "name": "KCS",
    "address": "서울 용산구 한강대로49길 12 (한강로2가)",
    "lat": "37.53288324",
    "lng": "126.9703357",
    "url": ""
  },
  {
    "category": "culture",
    "name": "굿온니플레이스",
    "address": "서울 종로구 새문안로3길 12 1층 (신문로1가)",
    "lat": "37.57131882",
    "lng": "126.9729446",
    "url": ""
  },
  {
    "category": "culture",
    "name": "알레그리아 광화문케이스퀘어시티점",
    "address": "서울 중구 청계천로 24 1층 103호",
    "lat": "37.56851591",
    "lng": "126.9802097",
    "url": ""
  },
  {
    "category": "culture",
    "name": "벌새",
    "address": "서울 종로구 새문안로3길 12 신문로빌딩 지하1층 (신문로1가)",
    "lat": "37.57131882",
    "lng": "126.9729446",
    "url": ""
  },
  {
    "category": "culture",
    "name": "수베니어 삼청",
    "address": "서울 종로구 팔판길 22-1 1층 (팔판동)",
    "lat": "37.58279432",
    "lng": "126.9812041",
    "url": ""
  },
  {
    "category": "culture",
    "name": "코튼 서울",
    "address": "서울 종로구 인사동12길 17 (관훈동)",
    "lat": "37.57474204",
    "lng": "126.9849232",
    "url": ""
  },
  {
    "category": "culture",
    "name": "휴먼메이드 압구정점",
    "address": "서울 강남구 선릉로157길 20-8 (신사동)",
    "lat": "37.52662349",
    "lng": "127.0385331",
    "url": ""
  },
  {
    "category": "culture",
    "name": "그랜드하얏트서울 아이스링크",
    "address": "서울 용산구 소월로 322 (한남동)",
    "lat": "37.53976298",
    "lng": "126.9962408",
    "url": ""
  },
  {
    "category": "culture",
    "name": "스와로브스키코리아 플래그십 서울도산파크",
    "address": "서울 강남구 언주로164길 30 (신사동)",
    "lat": "37.52543399",
    "lng": "127.035961",
    "url": ""
  },
  {
    "category": "culture",
    "name": "을지로베로나",
    "address": "서울 중구 충무로5길 24 은광빌딩 3층 (을지로3가)",
    "lat": "37.56547478",
    "lng": "126.9914835",
    "url": ""
  },
  {
    "category": "culture",
    "name": "어나더사이드",
    "address": "서울 강서구 강서로 318 1층 (내발산동)",
    "lat": "37.55402797",
    "lng": "126.8371495",
    "url": ""
  },
  {
    "category": "culture",
    "name": "오베뉴 한남",
    "address": "서울 용산구 한남대로20길 47-18 (한남동)",
    "lat": "37.53520993",
    "lng": "127.0102012",
    "url": ""
  },
  {
    "category": "culture",
    "name": "프론트서울",
    "address": "서울 강남구 도산대로11길 29 1층 (신사동)",
    "lat": "37.51932434",
    "lng": "127.0222252",
    "url": ""
  },
  {
    "category": "culture",
    "name": "조선팰리스 강남",
    "address": "서울 강남구 테헤란로 231 센터필드타워 West동 (역삼동)",
    "lat": "37.50288135",
    "lng": "127.0413565",
    "url": ""
  },
  {
    "category": "culture",
    "name": "그랜드 머큐어 임피리얼 팰리스 서울 강남",
    "address": "서울 강남구 언주로 640 (논현동)",
    "lat": "37.51408137",
    "lng": "127.0358843",
    "url": ""
  },
  {
    "category": "culture",
    "name": "빠니드엠무니",
    "address": "서울 강남구 압구정로56길 16 (신사동)",
    "lat": "37.52679924",
    "lng": "127.0397279",
    "url": ""
  },
  {
    "category": "restaurant",
    "name": "이씨부엌",
    "address": "서울 강북구 노해로8가길 32 (수유동)",
    "lat": "37.63941269",
    "lng": "127.0236269",
    "url": "https://place.map.kakao.com/1505581196"
  },
  {
    "category": "restaurant",
    "name": "피제리아 디 파올로",
    "address": "서울 중랑구 양원역로14가길 27 1층 (망우동)",
    "lat": "37.60761102",
    "lng": "127.1071532",
    "url": "https://place.map.kakao.com/2045223539"
  },
  {
    "category": "restaurant",
    "name": "운치",
    "address": "서울 성북구 고려대로7길 48 1층 (안암동1가)",
    "lat": "37.58806715",
    "lng": "127.0201593",
    "url": "https://place.map.kakao.com/1952209792"
  },
  {
    "category": "restaurant",
    "name": "벤베누토",
    "address": "서울 성북구 동소문로20나길 39 동선동복합빌 2층 (동선동1가)",
    "lat": "37.59271879",
    "lng": "127.0185529",
    "url": "https://place.map.kakao.com/230989806"
  },
  {
    "category": "restaurant",
    "name": "이자카야이야시 성신여대점",
    "address": "서울 성북구 동소문로20길 37-19 지하1층 (동선동1가)",
    "lat": "37.59124371",
    "lng": "127.0177766",
    "url": "https://place.map.kakao.com/1783037217"
  },
  {
    "category": "restaurant",
    "name": "멘야리",
    "address": "서울 성북구 동소문로20다길 30-11 1층 (동선동1가)",
    "lat": "37.59169471",
    "lng": "127.0186069",
    "url": "https://place.map.kakao.com/511649173"
  },
  {
    "category": "restaurant",
    "name": "후타츠",
    "address": "서울 도봉구 도봉로110길 9 (창동)",
    "lat": "37.64638652",
    "lng": "127.0341492",
    "url": "https://place.map.kakao.com/556071148"
  },
  {
    "category": "restaurant",
    "name": "라라면가",
    "address": "서울 성북구 동소문로22길 57-25 1층 (동선동2가)",
    "lat": "37.59094618",
    "lng": "127.0196677",
    "url": "https://place.map.kakao.com/697084504"
  },
  {
    "category": "restaurant",
    "name": "사이코우스시",
    "address": "서울 노원구 덕릉로73길 18 1층 (중계동)",
    "lat": "37.65217966",
    "lng": "127.0724355",
    "url": "https://place.map.kakao.com/24811983"
  },
  {
    "category": "restaurant",
    "name": "나보나",
    "address": "서울 노원구 동일로184길 52 1층 나보나 (공릉동)",
    "lat": "37.62441703",
    "lng": "127.0765086",
    "url": "https://place.map.kakao.com/1999858035"
  },
  {
    "category": "restaurant",
    "name": "휴돈정",
    "address": "서울 노원구 동일로191가길 6 건양오피스텔 1층 104호 (하계동)",
    "lat": "37.62532522",
    "lng": "127.0716457",
    "url": "https://place.map.kakao.com/1682786058"
  },
  {
    "category": "restaurant",
    "name": "디에트로",
    "address": "서울 노원구 동일로182길 36 1층 102~103호 (공릉동)",
    "lat": "37.62312137",
    "lng": "127.0761504",
    "url": "https://place.map.kakao.com/1114860504"
  },
  {
    "category": "restaurant",
    "name": "오스테리아 타피",
    "address": "서울 성북구 보문로 184-10 1층 (삼선동4가)",
    "lat": "37.59073184",
    "lng": "127.0153722",
    "url": "https://place.map.kakao.com/1252540896"
  },
  {
    "category": "restaurant",
    "name": "비스트로알베르",
    "address": "서울 강북구 도봉로76길 9 1층 (미아동)",
    "lat": "37.63296385",
    "lng": "127.0242151",
    "url": "https://place.map.kakao.com/1618833875"
  },
  {
    "category": "restaurant",
    "name": "레스팅",
    "address": "서울 중랑구 면목로 489 상봉어반뷰 3층 301호 (상봉동)",
    "lat": "37.59550573",
    "lng": "127.085324",
    "url": "https://place.map.kakao.com/857668617"
  },
  {
    "category": "restaurant",
    "name": "유영",
    "address": "서울 성북구 고려대로5길 89 1층 (삼선동5가)",
    "lat": "37.58904933",
    "lng": "127.0178727",
    "url": "https://place.map.kakao.com/1575350660"
  },
  {
    "category": "restaurant",
    "name": "포레스트 우드",
    "address": "서울 도봉구 도봉로 684 모비우스스퀘어 2층 204호 (도봉동)",
    "lat": "37.66535584",
    "lng": "127.0436071",
    "url": "https://place.map.kakao.com/1856868867"
  },
  {
    "category": "restaurant",
    "name": "비스트로리베르따",
    "address": "서울 노원구 석계로7길 11 1층 (월계동)",
    "lat": "37.61639683",
    "lng": "127.0638881",
    "url": "https://place.map.kakao.com/374673306"
  },
  {
    "category": "restaurant",
    "name": "우정초밥",
    "address": "서울 성북구 종암로3길 31 1층 (종암동)",
    "lat": "37.59299709",
    "lng": "127.034298",
    "url": "https://place.map.kakao.com/743447746"
  },
  {
    "category": "restaurant",
    "name": "스시모토",
    "address": "서울 도봉구 노해로60길 79 1층 (쌍문동)",
    "lat": "37.64789366",
    "lng": "127.0333053",
    "url": "https://place.map.kakao.com/2072736993"
  },
  {
    "category": "restaurant",
    "name": "도요스스시다온",
    "address": "서울 성북구 한천로80길 51 1층 (석관동)",
    "lat": "37.61300984",
    "lng": "127.0643723",
    "url": "https://place.map.kakao.com/1660204183"
  },
  {
    "category": "restaurant",
    "name": "숙수도가",
    "address": "서울 성북구 동소문로17길 28 1층 (동소문동6가)",
    "lat": "37.59354194",
    "lng": "127.0154116",
    "url": "https://place.map.kakao.com/1518107433"
  },
  {
    "category": "restaurant",
    "name": "졸리&몰트",
    "address": "서울 노원구 노해로83길 20 로카915 5층 (상계동)",
    "lat": "37.65614256",
    "lng": "127.0643218",
    "url": "https://place.map.kakao.com/968601203"
  },
  {
    "category": "restaurant",
    "name": "아카리",
    "address": "서울 도봉구 도봉로118길 18-2 (창동)",
    "lat": "37.6487858",
    "lng": "127.0361054",
    "url": "https://place.map.kakao.com/1608455458"
  },
  {
    "category": "restaurant",
    "name": "뱀요리주점",
    "address": "서울 성북구 동소문로20나길 34 2층 (동선동1가)",
    "lat": "37.59244004",
    "lng": "127.0184682",
    "url": "https://place.map.kakao.com/1938085140"
  },
  {
    "category": "restaurant",
    "name": "위켄드바베큐 노원직영점",
    "address": "서울 노원구 공릉로 167 노원빌딩 1층 (공릉동)",
    "lat": "37.6249149",
    "lng": "127.0795389",
    "url": "https://place.map.kakao.com/2076118968"
  },
  {
    "category": "restaurant",
    "name": "무르무르드구스토",
    "address": "서울 성북구 고려대로 102-2 4층 (안암동5가)",
    "lat": "37.58610917",
    "lng": "127.0307666",
    "url": "https://place.map.kakao.com/26869744"
  },
  {
    "category": "restaurant",
    "name": "르부아",
    "address": "서울 성북구 고려대로7길 56-18 1층 102호 (안암동1가)",
    "lat": "37.5887723",
    "lng": "127.0205241",
    "url": "https://place.map.kakao.com/1085498220"
  },
  {
    "category": "restaurant",
    "name": "에튀베",
    "address": "서울 노원구 동일로184길 41 동양빌딩 1층 (공릉동)",
    "lat": "37.6244698",
    "lng": "127.076002",
    "url": "https://place.map.kakao.com/1471880316"
  }
]